zFMT, 128, 89, FMT, BBnNZ, Type,Length,Name,Format,Columns
FMT, 129, 31, PARM, QNf, TimeUS,Name,Value
FMT, 130, 46, GPS, QBIHBcLLefffB, TimeUS,Status,GMS,GWk,NSats,HDop,Lat,Lng,Alt,Spd,GCrs,VZ,U
FMT, 131, 46, GPS2, QBIHBcLLefffB, TimeUS,Status,GMS,GWk,NSats,HDop,Lat,Lng,Alt,Spd,GCrs,VZ,U
FMT, 132, 46, GPSB, QBIHBcLLefffB, TimeUS,Status,GMS,GWk,NSats,HDop,Lat,Lng,Alt,Spd,GCrs,VZ,U
xFMT, 193, 24, GPA, QCCCCBI, TimeUS,VDop,HAcc,VAcc,SAcc,VV,SMS
FMT, 194, 24, GPA2, QCCCCBI, TimeUS,VDop,HAcc,VAcc,SAcc,VV,SMS
FMT, 195, 24, GPAB, QCCCCBI, TimeUS,VDop,HAcc,VAcc,SAcc,VV,SMS
FMT, 133, 53, IMU, QffffffIIfBBHH, TimeUS,GyrX,GyrY,GyrZ,AccX,AccY,AccZ,EG,EA,T,GH,AH,GHz,AHz
FMT, 134, 75, MSG, QZ, TimeUS,Message
FMT, 135, 39, RCIN, QHHHHHHHHHHHHHH, TimeUS,C1,C2,C3,C4,C5,C6,C7,C8,C9,C10,C11,C12,C13,C14
FMT, 136, 39, RCOU, QHHHHHHHHHHHHHH, TimeUS,C1,C2,C3,C4,C5,C6,C7,C8,C9,C10,C11,C12,C13,C14
FMT, 137, 15, RSSI, Qf, TimeUS,RXRSSI
FMT, 139, 37, BARO, QffcfIff, TimeUS,Alt,Press,Temp,CRt,SMS,Offset,GndTemp
FMT, 140, 21, POWR, QffH, TimeUS,Vcc,VServo,Flags
FMT, 143, 45, CMD, QHHHfffffff, TimeUS,CTot,CNum,CId,Prm1,Prm2,Prm3,Prm4,Lat,Lng,Alt
FMT, 144, 20, RAD, QBBBBBHH, TimeUS,RSSI,RemRSSI,TxBuf,Noise,RemNoise,RxErrors,Fixed
FMT, 146, 43, CAM, QIHLLeeeccC, TimeUS,GPSTime,GPSWeek,Lat,Lng,Alt,RelAlt,GPSAlt,Roll,Pitch,Yaw
FMT, 232, 43, TRIG, QIHLLeeeccC, TimeUS,GPSTime,GPSWeek,Lat,Lng,Alt,RelAlt,GPSAlt,Roll,Pitch,Yaw
FMT, 162, 30, ARSP, QffcffB, TimeUS,Airspeed,DiffPress,Temp,RawPress,Offset,U
FMT, 164, 45, CURR, QfffcHHHHHHHHHH, TimeUS,Volt,Curr,CurrTot,Temp,V1,V2,V3,V4,V5,V6,V7,V8,V9,V10
FMT, 165, 45, CUR2, QfffcHHHHHHHHHH, TimeUS,Volt,Curr,CurrTot,Temp,V1,V2,V3,V4,V5,V6,V7,V8,V9,V10
FMT, 163, 27, ATT, QccccCCCC, TimeUS,DesRoll,Roll,DesPitch,Pitch,DesYaw,Yaw,ErrRP,ErrYaw
FMT, 166, 34, MAG, QhhhhhhhhhBI, TimeUS,MagX,MagY,MagZ,OfsX,OfsY,OfsZ,MOfsX,MOfsY,MOfsZ,Health,S
FMT, 169, 14, MODE, QMBB, TimeUS,Mode,ModeNum,Rsn
FMT, 196, 17, RFND, QCBCB, TimeUS,Dist1,Orient1,Dist2,Orient2
FMT, 223, 33, DMS, IIIIIBBBBBBBBBB, TimeMS,N,Dp,RT,RS,Er,Fa,Fmn,Fmx,Pa,Pmn,Pmx,Sa,Smn,Smx
FMT, 240, 41, BCN, QBBfffffff, TimeUS,Health,Cnt,D0,D1,D2,D3,PosX,PosY,PosZ
FMT, 138, 53, IMU2, QffffffIIfBBHH, TimeUS,GyrX,GyrY,GyrZ,AccX,AccY,AccZ,EG,EA,T,GH,AH,GHz,AHz
FMT, 147, 53, IMU3, QffffffIIfBBHH, TimeUS,GyrX,GyrY,GyrZ,AccX,AccY,AccZ,EG,EA,T,GH,AH,GHz,AHz
FMT, 141, 45, AHR2, QccCfLLffff, TimeUS,Roll,Pitch,Yaw,Alt,Lat,Lng,Q1,Q2,Q3,Q4
FMT, 180, 31, POS, QLLfff, TimeUS,Lat,Lng,Alt,RelHomeAlt,RelOriginAlt
FMT, 142, 45, SIM, QccCfLLffff, TimeUS,Roll,Pitch,Yaw,Alt,Lat,Lng,Q1,Q2,Q3,Q4
FMT, 198, 51, NKF1, QccCfffffffccc, TimeUS,Roll,Pitch,Yaw,VN,VE,VD,dPD,PN,PE,PD,GX,GY,GZ
FMT, 199, 35, NKF2, QbccccchhhhhhB, TimeUS,AZbias,GSX,GSY,GSZ,VWN,VWE,MN,ME,MD,MX,MY,MZ,MI
FMT, 200, 33, NKF3, Qcccccchhhcc, TimeUS,IVN,IVE,IVD,IPN,IPE,IPD,IMX,IMY,IMZ,IYAW,IVT
FMT, 201, 35, NKF4, QcccccfbbHBHHb, TimeUS,SV,SP,SH,SM,SVT,errRP,OFN,OFE,FS,TS,SS,GPS,PI
FMT, 202, 40, NKF5, QBhhhcccCCfff, TimeUS,NI,FIX,FIY,AFI,HAGL,offset,RI,rng,Herr,eAng,eVel,ePos
FMT, 203, 51, NKF6, QccCfffffffccc, TimeUS,Roll,Pitch,Yaw,VN,VE,VD,dPD,PN,PE,PD,GX,GY,GZ
FMT, 204, 35, NKF7, QbccccchhhhhhB, TimeUS,AZbias,GSX,GSY,GSZ,VWN,VWE,MN,ME,MD,MX,MY,MZ,MI
FMT, 205, 33, NKF8, Qcccccchhhcc, TimeUS,IVN,IVE,IVD,IPN,IPE,IPD,IMX,IMY,IMZ,IYAW,IVT
FMT, 206, 35, NKF9, QcccccfbbHBHHb, TimeUS,SV,SP,SH,SM,SVT,errRP,OFN,OFE,FS,TS,SS,GPS,PI
FMT, 207, 36, NKF0, QBccCCcccccccc, TimeUS,ID,rng,innov,SIV,TR,BPN,BPE,BPD,OFH,OFL,OFN,OFE,OFD
FMT, 208, 27, NKQ1, Qffff, TimeUS,Q1,Q2,Q3,Q4
FMT, 209, 27, NKQ2, Qffff, TimeUS,Q1,Q2,Q3,Q4
FMT, 210, 51, XKF1, QccCfffffffccc, TimeUS,Roll,Pitch,Yaw,VN,VE,VD,dPD,PN,PE,PD,GX,GY,GZ
FMT, 211, 34, XKF2, QccccchhhhhhB, TimeUS,AX,AY,AZ,VWN,VWE,MN,ME,MD,MX,MY,MZ,MI
FMT, 212, 33, XKF3, Qcccccchhhcc, TimeUS,IVN,IVE,IVD,IPN,IPE,IPD,IMX,IMY,IMZ,IYAW,IVT
FMT, 213, 35, XKF4, QcccccfbbHBHHb, TimeUS,SV,SP,SH,SM,SVT,errRP,OFN,OFE,FS,TS,SS,GPS,PI
FMT, 214, 40, XKF5, QBhhhcccCCfff, TimeUS,NI,FIX,FIY,AFI,HAGL,offset,RI,rng,Herr,eAng,eVel,ePos
FMT, 215, 51, XKF6, QccCfffffffccc, TimeUS,Roll,Pitch,Yaw,VN,VE,VD,dPD,PN,PE,PD,GX,GY,GZ
FMT, 216, 34, XKF7, QccccchhhhhhB, TimeUS,AX,AY,AZ,VWN,VWE,MN,ME,MD,MX,MY,MZ,MI
FMT, 217, 33, XKF8, Qcccccchhhcc, TimeUS,IVN,IVE,IVD,IPN,IPE,IPD,IMX,IMY,IMZ,IYAW,IVT
FMT, 218, 35, XKF9, QcccccfbbHBHHb, TimeUS,SV,SP,SH,SM,SVT,errRP,OFN,OFE,FS,TS,SS,GPS,PI
FMT, 219, 36, XKF0, QBccCCcccccccc, TimeUS,ID,rng,innov,SIV,TR,BPN,BPE,BPD,OFH,OFL,OFN,OFE,OFD
FMT, 220, 27, XKQ1, Qffff, TimeUS,Q1,Q2,Q3,Q4
FMT, 221, 27, XKQ2, Qffff, TimeUS,Q1,Q2,Q3,Q4
FMT, 222, 35, XKFD, Qffffff, TimeUS,IX,IY,IZ,IVX,IVY,IVZ
FMT, 148, 34, TERR, QBLLHffHH, TimeUS,Status,Lat,Lng,Spacing,TerrH,CHeight,Pending,Loaded
FMT, 149, 18, UBX1, QBHBBH, TimeUS,Instance,noisePerMS,jamInd,aPower,agcCnt
FMT, 150, 16, UBX2, QBbBbB, TimeUS,Instance,ofsI,magI,ofsQ,magQ
FMT, 151, 18, UBY1, QBHBBH, TimeUS,Instance,noisePerMS,jamInd,aPower,agcCnt
FMT, 152, 16, UBY2, QBbBbB, TimeUS,Instance,ofsI,magI,ofsQ,magQ
FMT, 170, 42, GRAW, QIHBBddfBbB, TimeUS,WkMS,Week,numSV,sv,cpMes,prMes,doMes,mesQI,cno,lli
FMT, 171, 24, GRXH, QdHbBB, TimeUS,rcvTime,week,leapS,numMeas,recStat
FMT, 172, 41, GRXS, QddfBBBHBBBBB, TimeUS,prMes,cpMes,doMes,gnss,sv,freq,lock,cno,prD,cpD,doD,trk
FMT, 173, 63, SBFE, QIHBBdddfffff, TimeUS,TOW,WN,Mode,Err,Lat,Lng,Height,Undul,Vn,Ve,Vu,COG
FMT, 153, 19, ESC1, Qcccc, TimeUS,RPM,Volt,Curr,Temp
FMT, 154, 19, ESC2, Qcccc, TimeUS,RPM,Volt,Curr,Temp
FMT, 155, 19, ESC3, Qcccc, TimeUS,RPM,Volt,Curr,Temp
FMT, 156, 19, ESC4, Qcccc, TimeUS,RPM,Volt,Curr,Temp
FMT, 157, 19, ESC5, Qcccc, TimeUS,RPM,Volt,Curr,Temp
FMT, 158, 19, ESC6, Qcccc, TimeUS,RPM,Volt,Curr,Temp
FMT, 159, 19, ESC7, Qcccc, TimeUS,RPM,Volt,Curr,Temp
FMT, 160, 19, ESC8, Qcccc, TimeUS,RPM,Volt,Curr,Temp
FMT, 167, 34, MAG2, QhhhhhhhhhBI, TimeUS,MagX,MagY,MagZ,OfsX,OfsY,OfsZ,MOfsX,MOfsY,MOfsZ,Health,S
FMT, 168, 34, MAG3, QhhhhhhhhhBI, TimeUS,MagX,MagY,MagZ,OfsX,OfsY,OfsZ,MOfsX,MOfsY,MOfsZ,Health,S
FMT, 174, 31, ACC1, QQfff, TimeUS,SampleUS,AccX,AccY,AccZ
FMT, 175, 31, ACC2, QQfff, TimeUS,SampleUS,AccX,AccY,AccZ
FMT, 176, 31, ACC3, QQfff, TimeUS,SampleUS,AccX,AccY,AccZ
FMT, 177, 31, GYR1, QQfff, TimeUS,SampleUS,GyrX,GyrY,GyrZ
FMT, 178, 31, GYR2, QQfff, TimeUS,SampleUS,GyrX,GyrY,GyrZ
FMT, 179, 31, GYR3, QQfff, TimeUS,SampleUS,GyrX,GyrY,GyrZ
FMT, 181, 35, PIDR, Qffffff, TimeUS,Des,P,I,D,FF,AFF
FMT, 182, 35, PIDP, Qffffff, TimeUS,Des,P,I,D,FF,AFF
FMT, 183, 35, PIDY, Qffffff, TimeUS,Des,P,I,D,FF,AFF
FMT, 184, 35, PIDA, Qffffff, TimeUS,Des,P,I,D,FF,AFF
FMT, 185, 35, PIDS, Qffffff, TimeUS,Des,P,I,D,FF,AFF
FMT, 186, 35, PIDL, Qffffff, TimeUS,Des,P,I,D,FF,AFF
FMT, 161, 37, BAR2, QffcfIff, TimeUS,Alt,Press,Temp,CRt,SMS,Offset,GndTemp
FMT, 197, 37, BAR3, QffcfIff, TimeUS,Alt,Press,Temp,CRt,SMS,Offset,GndTemp
FMT, 187, 35, VIBE, QfffIII, TimeUS,VibeX,VibeY,VibeZ,Clip0,Clip1,Clip2
FMT, 188, 47, IMT, Qfffffffff, TimeUS,DelT,DelvT,DelaT,DelAX,DelAY,DelAZ,DelVX,DelVY,DelVZ
FMT, 189, 47, IMT2, Qfffffffff, TimeUS,DelT,DelvT,DelaT,DelAX,DelAY,DelAZ,DelVX,DelVY,DelVZ
FMT, 190, 47, IMT3, Qfffffffff, TimeUS,DelT,DelvT,DelaT,DelAX,DelAY,DelAZ,DelVX,DelVY,DelVZ
FMT, 191, 24, ORGN, QBLLe, TimeUS,Type,Lat,Lng,Alt
FMT, 192, 19, RPM, Qff, TimeUS,rpm1,rpm2
FMT, 233, 47, GMB1, Iffffffffff, TimeMS,dt,dax,day,daz,dvx,dvy,dvz,jx,jy,jz
FMT, 234, 44, GMB2, IBfffffffff, TimeMS,es,ex,ey,ez,rx,ry,rz,tx,ty,tz
FMT, 235, 13, GMB3, Ihhh, TimeMS,rl_torque_cmd,el_torque_cmd,az_torque_cmd
FMT, 236, 59, RATE, Qffffffffffff, TimeUS,RDes,R,ROut,PDes,P,POut,YDes,Y,YOut,ADes,A,AOut
FMT, 237, 23, RALY, QBBLLh, TimeUS,Tot,Seq,Lat,Lng,Alt
FMT, 238, 43, VISO, Qffffffff, TimeUS,dt,AngDX,AngDY,AngDZ,PosDX,PosDY,PosDZ,conf
FMT, 224, 23, SBPH, QIII, TimeUS,CrcError,LastInject,IARhyp
FMT, 229, 80, SBR1, QHHBZ, TimeUS,msg_type,sender_id,msg_len,d1
FMT, 230, 205, SBR2, QHZZZ, TimeUS,msg_type,d2,d3,d4
FMT, 25, 41, ATUN, QBBfffffff, TimeUS,Axis,TuneStep,Targ,Min,Max,RP,RD,SP,ddt
FMT, 26, 19, ATDE, Qff, TimeUS,Angle,Rate
FMT, 31, 22, PTUN, QBfHHH, TimeUS,Param,TunVal,CtrlIn,TunLo,TunHi
FMT, 12, 28, OF, QBffff, TimeUS,Qual,flowX,flowY,bodyX,bodyY
FMT, 5, 51, NTUN, Qffffffffff, TimeUS,DPosX,DPosY,PosX,PosY,DVelX,DVelY,VelX,VelY,DAccX,DAccY
FMT, 4, 51, CTUN, Qffffffeccfhh, TimeUS,ThI,ABst,ThO,ThH,DAlt,Alt,BAlt,DSAlt,SAlt,TAlt,DCRt,CRt
FMT, 6, 32, PM, QHHIhBHII, TimeUS,NLon,NLoop,MaxT,PMT,I2CErr,INSErr,LogDrop,Mem
FMT, 30, 27, MOTB, Qffff, TimeUS,LiftMax,BatVolt,BatRes,ThLimit
FMT, 13, 12, EV, QB, TimeUS,Id
FMT, 20, 14, D16, QBh, TimeUS,Id,Value
FMT, 21, 14, DU16, QBH, TimeUS,Id,Value
FMT, 22, 16, D32, QBi, TimeUS,Id,Value
FMT, 23, 16, DU32, QBI, TimeUS,Id,Value
FMT, 24, 16, DFLT, QBf, TimeUS,Id,Value
FMT, 19, 13, ERR, QBB, TimeUS,Subsys,ECode
FMT, 32, 19, HELI, Qff, TimeUS,DRRPM,ERRPM
FMT, 33, 29, PL, QBBffff, TimeUS,Heal,TAcq,pX,pY,vX,vY
FMT, 34, 36, GUID, QBffffff, TimeUS,Type,pX,pY,pZ,vX,vY,vZ
FMT, 35, 32, THRO, QBffffbbbb, TimeUS,Stage,Vel,VelZ,Acc,AccEfZ,Throw,AttOk,HgtOk,PosOk
FMT, 36, 56, PRX, QBfffffffffff, TimeUS,Health,D0,D45,D90,D135,D180,D225,D270,D315,DUp,CAn,CDis
EV, 41378029, 17
EV, 41392271, 26
MSG, 41392293, SIMPLE mode on
MSG, 41590841, APM:Copter V3.5.5 (27229c83)
MSG, 41590857, PX4: 0384802e NuttX: 1bcae90b
MSG, 41590904, PX4v3 0035003D 3136510C 34313630
MSG, 41590921, New mission
MSG, 41591045, Frame: QUAD
MODE, 41591065, Stabilize, 0, 1
MAG, 41669312, -280, -70, 251, -365, -175, -172, 0, 0, 0, 1, 41669290
MAG2, 41669312, 60, 170, 531, -50, 161, -40, 0, 0, 0, 1, 41669298
MAG3, 41669312, 0, -2, 0, 0, 0, 0, 0, 0, 0, 1, 41669305
ATT, 41669826, -2.55, -2.55, 13.47, 13.47, 164.12, 164.12, 0.81, 0.51
RATE, 41669841, -4.203973, -4.203973, -0.01239873, -19.53085, -19.53085, -0.01932755, 13.67651, 13.67651, 0.001253775, 0, -479.4993, 0
MAG, 41769401, -283, -59, 249, -365, -175, -172, 0, 0, 0, 1, 41769380
MAG2, 41769401, 69, 158, 530, -50, 161, -40, 0, 0, 0, 1, 41769388
MAG3, 41769401, 0, -2, 0, 0, 0, 0, 0, 0, 0, 1, 41769395
ATT, 41769850, -4.24, -4.24, 11.46, 11.46, 165.01, 165.01, 0.81, 0.41
RATE, 41769864, -15.46097, -15.46097, -0.01705488, -3.073697, -3.073697, -0.01571399, 3.305882, 3.305882, -0.00389081, 0, 2.776241, 0
MAG, 41869322, -275, -43, 253, -365, -175, -172, 0, 0, 0, 1, 41869301
MAG2, 41869322, 77, 145, 529, -50, 161, -40, 0, 0, 0, 1, 41869308
MAG3, 41869322, 0, -3, 0, 0, 0, 0, 0, 0, 0, 1, 41869316
ATT, 41869776, -4.65, -4.65, 6.48, 6.48, 165.48, 165.48, 0.73, 0.34
RATE, 41869791, 10.26321, 10.26321, 0.01108141, -32.77616, -32.77616, -0.007729524, -3.281636, -3.281636, -0.002428157, 0, 280.9772, 0
MAG, 41969341, -292, -40, 243, -365, -175, -172, 0, 0, 0, 1, 41969312
MAG2, 41969341, 97, 149, 519, -50, 161, -40, 0, 0, 0, 1, 41969328
MAG3, 41969341, 0, -3, 0, 0, 0, 0, 0, 0, 0, 1, 41969335
ATT, 41969811, -2.42, -2.42, 0.55, 0.55, 164.96, 164.96, 0.73, 0.30
RATE, 41969826, 1.266785, 1.266785, -0.01102677, 4.257167, 4.257167, 0.01711801, -20.23763, -20.23763, -0.002806467, 0, 59.11407, 0
MAG, 42069342, -296, -48, 241, -365, -175, -172, 0, 0, 0, 1, 42069320
MAG2, 42069342, 95, 158, 518, -50, 161, -40, 0, 0, 0, 1, 42069328
MAG3, 42069342, 0, -2, 0, 0, 0, 0, 0, 0, 0, 1, 42069335
ATT, 42069804, -3.59, -3.59, 1.16, 1.16, 163.19, 163.19, 0.60, 0.26
RATE, 42069819, -6.990162, -6.990162, 0.005029945, 22.03191, 22.03191, -0.00682414, -18.26501, -18.26501, 0.0040179, 0, 259.0666, 0
MAG, 42169305, -286, -55, 249, -365, -175, -172, 0, 0, 0, 1, 42169284
MAG2, 42169305, 80, 161, 525, -50, 161, -40, 0, 0, 0, 1, 42169292
MAG3, 42169305, 0, -2, 0, 0, 0, 0, 0, 0, 0, 1, 42169299
ATT, 42169759, -3.86, -3.86, 1.31, 1.31, 161.90, 161.90, 0.60, 0.24
RATE, 42169773, 8.981591, 8.981591, 0.01287048, 4.65897, 4.65897, 0.009372933, -20.11148, -20.11148, 0.002183867, 0, 55.369, 0
MAG, 42269376, -292, -65, 246, -365, -175, -172, 0, 0, 0, 1, 42269355
MAG2, 42269376, 73, 170, 526, -50, 161, -40, 0, 0, 0, 1, 42269362
MAG3, 42269376, 0, -2, 0, 0, 0, 0, 0, 0, 0, 1, 42269370
ATT, 42269794, -4.07, -4.07, 1.48, 1.48, 160.49, 160.49, 0.48, 0.22
RATE, 42269809, -14.45244, -14.45244, -0.03689357, 16.17132, 16.17132, 0.04542403, -15.25472, -15.25472, 0.003465877, 0, -76.48306, 0
MAG, 42369780, -281, -67, 251, -365, -175, -172, 0, 0, 0, 1, 42369431
MAG2, 42369780, 61, 167, 532, -50, 161, -40, 0, 0, 0, 1, 42369439
MAG3, 42369780, 0, -2, 0, 0, 0, 0, 0, 0, 0, 1, 42369774
ATT, 42369909, -6.44, -6.44, 4.09, 4.09, 159.64, 159.64, 0.48, 0.21
RATE, 42369924, -12.94941, -12.94941, -0.02339461, 18.38381, 18.38381, 0.03069161, -6.96455, -6.96455, 0.004722121, 0, 168.0891, 0
MAG, 42379191, -281, -67, 251, -365, -175, -172, 0, 0, 0, 1, 42369431
MAG2, 42379191, 61, 167, 532, -50, 161, -40, 0, 0, 0, 1, 42369439
MAG3, 42379191, 0, -2, 0, 0, 0, 0, 0, 0, 0, 1, 42369774
BARO, 42379191, 0.8138072, 101384.1, 43.58, -0.5819216, 42369, 0, 35
BAR2, 42379191, 0.7742472, 101425.3, 39.81, -0.5819216, 42369, 0, 35
IMT, 42379191, 0.002503, 0.0009990172, 0.0009990183, -0.0001562487, 0.0002344135, -0.0001097897, 0.001078651, 0.0002140139, -0.01147635
IMT, 42384907, 0.002503, 0.0009990172, 0.0009990183, -0.0001562487, 0.0002344135, -0.0001097897, 0.001078651, 0.0002140139, -0.01147635
IMT, 42386068, 0.006717, 0.007992137, 0.007992147, -0.001081681, 0.00156912, -0.0008025004, 0.01004019, 0.002241271, -0.09246238
IMT, 42388364, 0.002524, 0.002997051, 0.002997055, -0.0002931027, 0.000428988, -0.0002715017, 0.004235746, 0.0009574435, -0.03520181
IMT, 42390991, 0.002495, 0.0009990172, 0.0009990183, -8.853217E-05, 0.0001200956, -8.886085E-05, 0.001457044, 0.0003729831, -0.01175815
IMT, 42393605, 0.002621, 0.002997051, 0.002997055, -0.0002353952, 0.0002759207, -0.0002637313, 0.004388242, 0.001395954, -0.03531894
IMT, 42396048, 0.002521, 0.002997051, 0.002997055, -0.0001783022, 0.0001715138, -0.0002655735, 0.004498509, 0.001696775, -0.03542994
IMT, 42398396, 0.002358, 0.002997051, 0.002997055, -0.0001114991, 4.782073E-05, -0.0002596807, 0.004763484, 0.001872311, -0.03544945
IMT, 42400976, 0.002647, 0.0009990172, 0.0009990183, -2.562308E-05, -1.189933E-05, -8.625713E-05, 0.001543044, 0.0006318498, -0.01179146
IMT, 42403881, 0.002528, 0.003996069, 0.003996073, -3.066073E-05, -0.0001927832, -0.000345632, 0.005963724, 0.002673254, -0.04723816
IMT, 42406084, 0.002519, 0.001998034, 0.001998037, 2.006263E-05, -0.0001854365, -0.0001782995, 0.002884756, 0.001470528, -0.02368952
IMT, 42408681, 0.002305, 0.002997051, 0.002997055, 7.369203E-05, -0.0003816959, -0.0002797685, 0.003913776, 0.002089659, -0.03547896
IMT, 42411062, 0.002641, 0.001998034, 0.001998037, 7.156208E-05, -0.0003206673, -0.0001991513, 0.002489646, 0.00145727, -0.02362584
IMT, 42413416, 0.002433, 0.002997051, 0.002997055, 0.0001348059, -0.000575373, -0.0002995614, 0.003573258, 0.00222475, -0.03531079
IMT, 42415901, 0.002448, 0.001998034, 0.001998037, 0.0001222029, -0.0004619166, -0.0002093854, 0.002229884, 0.001490591, -0.02348874
IMT, 42418411, 0.002606, 0.002997051, 0.002997055, 0.0002054538, -0.0007896737, -0.000336999, 0.002742381, 0.001908729, -0.03502328
IMT, 42420813, 0.002413, 0.001998034, 0.001998037, 0.0001440246, -0.0005663162, -0.0002338287, 0.001569842, 0.001244026, -0.02343209
IMT, 42423282, 0.00246, 0.002997051, 0.002997055, 0.000228958, -0.0009400885, -0.0003692521, 0.002461897, 0.001961447, -0.03493451
IMT, 42426133, 0.002687, 0.001998034, 0.001998037, 0.0001718279, -0.000685647, -0.0002581603, 0.001471181, 0.001248186, -0.0232542
IMT, 42428589, 0.002434, 0.002997051, 0.002997055, 0.0002622497, -0.001108216, -0.0004096741, 0.00164198, 0.001588066, -0.0345708
IMT, 42431056, 0.002519, 0.001998034, 0.001998037, 0.0001846881, -0.0007865635, -0.000291981, 0.0009668145, 0.001047213, -0.02282589
IMT, 42433441, 0.002459, 0.002997051, 0.002997055, 0.0002772821, -0.001232256, -0.0004584502, 0.001383413, 0.001391953, -0.03415773
IMT, 42435919, 0.002401, 0.001998034, 0.001998037, 0.0001835704, -0.0008585192, -0.0003170216, 0.0007441867, 0.0008392124, -0.02263267
IMT, 42438411, 0.002632, 0.002997051, 0.002997055, 0.0002789414, -0.001331789, -0.0005128912, 0.001150915, 0.001305008, -0.03390636
IMT, 42440812, 0.002401, 0.001998034, 0.001998037, 0.0001804032, -0.0009215378, -0.0003569917, 0.0007725774, 0.00084277, -0.02247918
IMT, 42443293, 0.002467, 0.002997051, 0.002997055, 0.0002552362, -0.001417265, -0.0005559272, 0.001056969, 0.001089014, -0.03365812
IMT, 42446099, 0.002655, 0.001998034, 0.001998037, 0.0001560156, -0.000967549, -0.0003804677, 0.00061886, 0.0007838552, -0.02227174
IMT, 42448325, 0.002356, 0.002997051, 0.002997055, 0.000216248, -0.001474245, -0.0005918727, 0.0009745136, 0.001254278, -0.03325914
IMT, 42451038, 0.002625, 0.001998034, 0.001998037, 0.000131922, -0.0009840173, -0.0004097729, 0.0007602134, 0.0006980121, -0.02210352
IMT, 42453333, 0.002384, 0.002997051, 0.002997055, 0.0001508924, -0.001495386, -0.0006312977, 0.001138528, 0.0009270313, -0.03287214
IMT, 42455918, 0.00248, 0.001998034, 0.001998037, 7.183576E-05, -0.001003371, -0.0004337216, 0.0007192711, 0.0006824718, -0.02186562
IMT, 42458415, 0.002631, 0.002997051, 0.002997055, 7.041751E-05, -0.001495618, -0.0006815288, 0.00113495, 0.001324388, -0.03256343
IMT, 42460899, 0.002482, 0.002997051, 0.002997055, 2.933546E-05, -0.001495041, -0.0007002882, 0.001318949, 0.001540245, -0.03232047
IMT, 42463321, 0.002386, 0.001998034, 0.001998037, -1.026215E-05, -0.0009987939, -0.0004809993, 0.0007570357, 0.001041446, -0.02136783
IMT, 42466062, 0.00265, 0.001998034, 0.001998037, -3.437211E-05, -0.000992159, -0.0004944081, 0.0007368583, 0.001050269, -0.02114154
IMT, 42468276, 0.002351, 0.002997051, 0.002997055, -7.94044E-05, -0.001483017, -0.0007634684, 0.0009353709, 0.00158557, -0.03133702
IMT, 42471247, 0.002524, 0.001998034, 0.001998037, -7.990006E-05, -0.0009748617, -0.0005212728, 0.0005387848, 0.001077544, -0.0206119
IMT, 42473334, 0.002475, 0.002997051, 0.002997055, -0.0001581403, -0.001441623, -0.0007953281, 0.0006789481, 0.001815423, -0.03033759
DU32, 42474004, 7, 33611978
IMT, 42477291, 0.003821, 0.002997051, 0.002997055, -0.0001925593, -0.001429183, -0.0008168567, 0.0004920794, 0.001868729, -0.03012749
ATT, 42478201, -4.00, -4.00, 5.38, 5.38, 359.13, 359.14, 0.41, 0.20
RATE, 42478215, -0.8755392, -0.8755392, 0.003876369, -28.50681, -28.50681, -0.002881364, -14.25065, -14.25065, 0.001838389, 0, 73.3262, 0
NKF1, 42478238, -4.00, 5.38, 359.13, -0.04984197, 0.0008438638, -0.1533755, 0, 0, 0, -0.009044956, 0.00, 0.00, 0.00
NKF2, 42478238, 0, 0.00, 0.00, 0.00, 0.00, 0.00, 0, 0, 0, 0, 0, 0, 0
NKF3, 42478238, 0.00, 0.00, 0.00, 0.00, 0.00, 0.00, 0, 0, 0, 0.00, 0.00
NKF4, 42478238, 0.00, 0.00, 0.00, 0.00, 0.00, 0.9625136, 0, 0, 0, 19, 0, 0, 0
NKF5, 42478238, 0, 0, 0, 0, 0.05, 0.05, 0.00, 0.00, 0.50, 0.002721495, 0.005369282, 2.657254E-05
NKQ1, 42478238, 0.9986244, -0.02176121, 0.04726548, -0.006466883
NKF6, 42478238, -4.32, 6.10, 359.11, -0.05168099, 0.003419808, -0.155164, 0, 0, 0, -0.008750056, 0.00, 0.00, 0.00
NKF7, 42478238, 0, 0.00, 0.00, 0.00, 0.00, 0.00, 0, 0, 0, 0, 0, 0, 0
NKF8, 42478238, 0.00, 0.00, 0.00, 0.00, 0.00, 0.00, 0, 0, 0, 0.00, 0.00
NKF9, 42478238, 0.00, 0.00, 0.00, 0.00, 0.00, 0.8742592, 0, 0, 0, 19, 0, 0, 0
NKQ2, 42478238, 0.998246, -0.02454917, 0.05349768, -0.006344782
FMT, 254, 47, NKT1, QIffffffff, TimeUS,Cnt,IMUMin,IMUMax,EKFMin,EKFMax,AngMin,AngMax,VelMin,VelM
NKT1, 42478238, 9, 0.0025, 0.0025, 0.01004936, 0.01005974, 0.001004936, 0.001005974, 0.001004936, 0.001005974
FMT, 253, 47, NKT2, QIffffffff, TimeUS,Cnt,IMUMin,IMUMax,EKFMin,EKFMax,AngMin,AngMax,VelMin,VelM
NKT2, 42478238, 9, 0.0025, 0.0025, 0.01011516, 0.01016142, 0.00353, 0.00353, 0.00304, 0.00304
AHR2, 42479111, -5.70, 2.35, 159.71, 0.42, 0, 0, 0.1748153, -0.02899893, -0.0453479, 0.9831288
MSG, 42480900, EKF2 IMU0 initial yaw alignment complete
MAG, 42479989, -264, -64, 257, -365, -175, -172, 0, 0, 0, 1, 42473908
MAG2, 42479989, 50, 160, 537, -50, 161, -40, 0, 0, 0, 1, 42473916
MAG3, 42479989, 0, -2, 0, 0, 0, 0, 0, 0, 0, 1, 42473923
BARO, 42479989, 0.4266837, 101388.5, 43.58, 0.8740666, 42473, 0, 35
BAR2, 42479989, 0.2627919, 101431.1, 39.82, 0.8740666, 42473, 0, 35
IMT, 42479989, 0.002844, 0.003996069, 0.003996073, -0.000313566, -0.001874904, -0.001129759, 0.0004501194, 0.00236907, -0.03908053
EV, 42482738, 62
MSG, 42484823, EKF2 IMU1 initial yaw alignment complete
MAG, 42483437, -264, -64, 257, -365, -175, -172, 0, 0, 0, 1, 42473908
MAG2, 42483437, 50, 160, 537, -50, 161, -40, 0, 0, 0, 1, 42473916
MAG3, 42483437, 0, -2, 0, 0, 0, 0, 0, 0, 0, 1, 42473923
BARO, 42483437, 0.4266837, 101388.5, 43.58, 0.8740666, 42473, 0, 35
BAR2, 42483437, 0.2627919, 101431.1, 39.82, 0.8740666, 42473, 0, 35
IMT, 42483437, 0.003309, 0.002997051, 0.002997055, -0.0002740383, -0.001378918, -0.0008705433, -0.000153009, 0.001655571, -0.02899248
IMT, 42487054, 0.003695, 0.002997051, 0.002997055, -0.0003200111, -0.00133036, -0.0008905736, -0.0003828467, 0.001843205, -0.02837887
IMT, 42489889, 0.002522, 0.002997051, 0.002997055, -0.0003471782, -0.001280736, -0.0009126462, -0.0003287259, 0.00186965, -0.02764253
IMT, 42492115, 0.002503, 0.002997051, 0.002997055, -0.0003835248, -0.0012298, -0.0009362049, -0.0005199953, 0.001556891, -0.02722873
IMT, 42494874, 0.002492, 0.001998034, 0.001998037, -0.0002822647, -0.0007972402, -0.0006317858, -0.0004515041, 0.001058447, -0.01784968
IMT, 42497127, 0.002501, 0.001998034, 0.001998037, -0.0002890251, -0.0007695941, -0.0006490517, -0.0005602177, 0.001180311, -0.01757525
IMT, 42499779, 0.002504, 0.002997051, 0.002997055, -0.0004621239, -0.001099461, -0.0009876473, -0.0009836394, 0.001690775, -0.02588971
IMT, 42503014, 0.003453, 0.002997051, 0.002997055, -0.0004876527, -0.001044221, -0.001006961, -0.001138103, 0.001358197, -0.02546333
IMT, 42505444, 0.002519, 0.002997051, 0.002997055, -0.0005194272, -0.0009796422, -0.001023401, -0.001568634, 0.001096998, -0.02485755
IMT, 42507966, 0.002502, 0.002997051, 0.002997055, -0.00055043, -0.0009083198, -0.001042441, -0.001896224, 0.0009241919, -0.02433081
IMT, 42510444, 0.002498, 0.001998034, 0.001998037, -0.0003817296, -0.0005569484, -0.0007029756, -0.001295177, 0.0004515299, -0.01588279
IMT, 42512967, 0.002519, 0.002997051, 0.002997055, -0.0005868979, -0.0007677173, -0.001052307, -0.001619589, 0.0006305143, -0.02333692
IMT, 42515445, 0.00248, 0.001998034, 0.001998037, -0.0003956672, -0.0004701278, -0.0007060543, -0.001164992, 0.0003092985, -0.01526436
IMT, 42518169, 0.002511, 0.001998034, 0.001998037, -0.0004034391, -0.0004345598, -0.000707218, -0.001351502, 0.0001340191, -0.01509993
IMT, 42520802, 0.002502, 0.002997051, 0.002997055, -0.0006254053, -0.0005905941, -0.001054649, -0.00224002, -4.357371E-05, -0.02217938
IMT, 42523061, 0.002565, 0.001998034, 0.001998037, -0.0004201804, -0.0003321181, -0.0007023701, -0.001449494, -0.0002228783, -0.01455988
IMT, 42525641, 0.002428, 0.002997051, 0.002997055, -0.0006582057, -0.0004214477, -0.001053864, -0.002125972, -0.0003664638, -0.02166332
IMT, 42528004, 0.002495, 0.002997051, 0.002997055, -0.0006700131, -0.000325359, -0.001048542, -0.002081073, -0.0002385196, -0.02124861
IMT, 42530444, 0.0025, 0.001998034, 0.001998037, -0.0004455744, -0.0001691373, -0.0006912993, -0.001342885, -0.0001862724, -0.01391646
IMT, 42533070, 0.002622, 0.001998034, 0.001998037, -0.0004566356, -0.0001310932, -0.0006901471, -0.001441315, -0.0002877575, -0.01365691
IMT, 42535633, 0.002384, 0.002997051, 0.002997055, -0.000690337, -0.0001079761, -0.001034372, -0.002226423, -0.0005628064, -0.02034321
IMT, 42538006, 0.002498, 0.002997051, 0.002997055, -0.000702122, 6.750729E-06, -0.001018565, -0.002157137, -0.0006775977, -0.01994677
IMT, 42540798, 0.002495, 0.001998034, 0.001998037, -0.0004741081, 6.032615E-05, -0.0006802486, -0.001384276, -0.0004299036, -0.01309245
IMT, 42543115, 0.002519, 0.001998034, 0.001998037, -0.0004776267, 9.940681E-05, -0.0006754053, -0.001414301, -0.0004480096, -0.01283625
IMT, 42545852, 0.002537, 0.002997051, 0.002997055, -0.0007240236, 0.0002370537, -0.001002182, -0.002168335, -0.0007688468, -0.01893034
IMT, 42547954, 0.002446, 0.002997051, 0.002997055, -0.0007373538, 0.0003381283, -0.0009964816, -0.002310042, -0.001077626, -0.01863763
IMT, 42550448, 0.002503, 0.001998034, 0.001998037, -0.0005038616, 0.000282561, -0.0006527437, -0.001659906, -0.0007394403, -0.01221571
IMT, 42553067, 0.002608, 0.001998034, 0.001998037, -0.0005119613, 0.0003306106, -0.0006428758, -0.0016854, -0.0006693673, -0.01203544
IMT, 42555445, 0.002388, 0.002997051, 0.002997055, -0.0007742734, 0.000586356, -0.0009637624, -0.002433847, -0.0008337201, -0.01774213
IMT, 42557981, 0.002507, 0.002997051, 0.002997055, -0.0007866166, 0.0006602989, -0.0009536531, -0.002722665, -0.00100418, -0.01745796
IMT, 42560729, 0.002493, 0.001998034, 0.001998037, -0.0005337107, 0.0004902519, -0.0006315712, -0.002215023, -0.0007270483, -0.01158505
IMT, 42563098, 0.00251, 0.001998034, 0.001998037, -0.0005428746, 0.0005396624, -0.0006236538, -0.00235132, -0.0007029612, -0.01149849
IMT, 42565950, 0.002489, 0.002997051, 0.002997055, -0.0008379624, 0.0009015208, -0.0009255135, -0.003160642, -0.000815825, -0.0168156
IMT, 42567948, 0.002501, 0.002997051, 0.002997055, -0.0008497051, 0.0009836635, -0.0009225755, -0.003195488, -0.0007939194, -0.01664427
IMT, 42570444, 0.0025, 0.001998034, 0.001998037, -0.0005684387, 0.0007001692, -0.0006104247, -0.002347757, -0.0005134589, -0.01104466
IMT, 42573057, 0.002589, 0.001998034, 0.001998037, -0.0005771776, 0.0007431589, -0.0006045411, -0.002410801, -0.0005673254, -0.01100744
IMT, 42575655, 0.002434, 0.002997051, 0.002997055, -0.0008905032, 0.001193497, -0.0008925645, -0.003526188, -0.0008989339, -0.01657575
IMT, 42578027, 0.002476, 0.002997051, 0.002997055, -0.0008967661, 0.001283324, -0.0008887957, -0.00359968, -0.0008578459, -0.01616874
IMT, 42580771, 0.002506, 0.001998034, 0.001998037, -0.0006091509, 0.0009074921, -0.0005844321, -0.002512734, -0.0006090953, -0.01060847
ATT, 42581332, -5.85, -5.85, 8.02, 8.02, 164.40, 164.40, 0.41, 0.20
RATE, 42581351, -16.39147, -16.39147, 0.0001669789, 20.09439, 20.09439, -0.0001514202, -17.43893, -17.43893, 0.0003556044, 0, -450.6316, 0
NKF1, 42581373, -5.85, 8.02, 164.40, 0.1254776, -0.001963095, 0.1291849, 0, 0, 0, -0.1552546, 0.00, 0.00, 0.00
NKF2, 42581373, 0, 0.00, 0.00, 0.00, 0.00, 0.00, 254, 0, 286, 0, 0, 0, 0
NKF3, 42581373, 0.00, 0.00, 0.00, 0.00, 0.00, 0.81, 0, 0, 0, 0.00, 0.00
NKF4, 42581373, 0.00, 0.00, 0.03, 0.00, 0.00, 0.9243351, 0, 0, 0, 19, 0, 0, 0
NKF5, 42581373, 0, 0, 0, 0, 0.45, 0.05, 0.00, 0.00, 0.50, 0.002015542, 0.01650645, 0.2782586
NKQ1, 42581373, 0.1325563, -0.07453644, -0.02837391, 0.9879616
NKF6, 42581373, -6.38, 9.09, 164.80, 0.1183252, -0.002501104, 0.1140678, 0, 0, 0, -0.1564141, 0.00, 0.00, 0.00
NKF7, 42581373, 0, 0.00, 0.00, 0.00, 0.00, 0.00, 249, 0, 290, 0, 0, 0, 0
NKF8, 42581373, 0.00, 0.00, 0.00, 0.00, 0.00, 0.81, 0, 0, 0, 0.00, 0.00
NKF9, 42581373, 0.00, 0.00, 0.03, 0.00, 0.00, 0.7589425, 0, 0, 0, 19, 0, 0, 0
NKQ2, 42581373, 0.1283154, -0.08423081, -0.03191136, 0.9876346
AHR2, 42581854, -5.81, 1.39, 158.78, 0.46, 0, 0, 0.1831995, -0.02127557, -0.0475908, 0.9816926
MAG, 42583058, -276, -62, 253, -365, -175, -172, 0, 0, 0, 1, 42578436
MAG2, 42583058, 60, 161, 533, -50, 161, -40, 0, 0, 0, 1, 42578583
MAG3, 42583058, 0, -2, 0, 0, 0, 0, 0, 0, 0, 1, 42578591
BARO, 42583058, 0.4690695, 101388, 43.58, 1.133907, 42578, 0, 35
BAR2, 42583058, 0.3842978, 101429.7, 39.82, 1.133907, 42578, 0, 35
IMT, 42583058, 0.002495, 0.001998034, 0.001998037, -0.0006192343, 0.0009480425, -0.000580766, -0.002413135, -0.0006540752, -0.01043388
MAG, 42585840, -276, -62, 253, -365, -175, -172, 0, 0, 0, 1, 42578436
MAG2, 42585840, 60, 161, 533, -50, 161, -40, 0, 0, 0, 1, 42578583
MAG3, 42585840, 0, -2, 0, 0, 0, 0, 0, 0, 0, 1, 42578591
BARO, 42585840, 0.4690695, 101388, 43.58, 1.133907, 42578, 0, 35
BAR2, 42585840, 0.3842978, 101429.7, 39.82, 1.133907, 42578, 0, 35
IMT, 42585840, 0.002502, 0.002997051, 0.002997055, -0.0009370249, 0.001492628, -0.0008649385, -0.003528842, -0.001062485, -0.01528989
IMT, 42588167, 0.002575, 0.001998034, 0.001998037, -0.0006350649, 0.001047147, -0.0005715573, -0.002419213, -0.0007132094, -0.01004238
IMT, 42590445, 0.002423, 0.002997051, 0.002997055, -0.000961556, 0.001628169, -0.0008474618, -0.003793916, -0.001216496, -0.0148541
IMT, 42593128, 0.002642, 0.001998034, 0.001998037, -0.0006505145, 0.001133348, -0.0005562269, -0.002544098, -0.0008879857, -0.009626258
IMT, 42595731, 0.002357, 0.002997051, 0.002997055, -0.000985691, 0.001789405, -0.0008208343, -0.003781742, -0.0014211, -0.01442046
IMT, 42598096, 0.002501, 0.001998034, 0.001998037, -0.0006647953, 0.00123123, -0.0005344571, -0.002446793, -0.001010495, -0.009390403
IMT, 42600488, 0.002499, 0.002997051, 0.002997055, -0.001015078, 0.001886542, -0.0007934233, -0.003803199, -0.001511655, -0.0139958
IMT, 42603079, 0.002592, 0.001998034, 0.001998037, -0.0006889156, 0.00129913, -0.0005130877, -0.002708541, -0.001036851, -0.009416528
IMT, 42605881, 0.002409, 0.002997051, 0.002997055, -0.001039035, 0.00203027, -0.0007583704, -0.003751166, -0.001446743, -0.01389371
IMT, 42608269, 0.0025, 0.002997051, 0.002997055, -0.001043092, 0.002091134, -0.0007380066, -0.003534665, -0.001354872, -0.01369944
IMT, 42610790, 0.002537, 0.001998034, 0.001998037, -0.0006948286, 0.0014226, -0.000481192, -0.002407326, -0.000801812, -0.009122889
IMT, 42613006, 0.002525, 0.001998034, 0.001998037, -0.0006979097, 0.001431277, -0.0004723085, -0.002469615, -0.0007789965, -0.009198206
IMT, 42615644, 0.00245, 0.002997051, 0.002997055, -0.001046452, 0.002190967, -0.0006814698, -0.003845918, -0.0011002, -0.01385672
IMT, 42618002, 0.002539, 0.002997051, 0.002997055, -0.001050362, 0.002246958, -0.0006669391, -0.003873619, -0.001070753, -0.01405874
IMT, 42620792, 0.002482, 0.001998034, 0.001998037, -0.0007020467, 0.001525709, -0.0004315103, -0.002508622, -0.0006215764, -0.009237673
IMT, 42623178, 0.002586, 0.001998034, 0.001998037, -0.0007063242, 0.001539757, -0.0004166014, -0.002509778, -0.0004942346, -0.009211926
IMT, 42625755, 0.00238, 0.002997051, 0.002997055, -0.001028245, 0.002312579, -0.00059722, -0.003649693, -0.0005731044, -0.0139507
IMT, 42628010, 0.002505, 0.002997051, 0.002997055, -0.001015333, 0.002311956, -0.0005681592, -0.003805892, -0.0009423097, -0.01408252
IMT, 42630826, 0.002504, 0.001998034, 0.001998037, -0.0006762942, 0.001547272, -0.000361661, -0.002733534, -0.0007023591, -0.009505592
IMT, 42633079, 0.002511, 0.002997051, 0.002997055, -0.001014387, 0.002339977, -0.0005191581, -0.004175446, -0.0006721409, -0.01424049
IMT, 42635745, 0.002499, 0.001998034, 0.001998037, -0.0006633408, 0.001568409, -0.0003303212, -0.002697432, -0.0003275375, -0.009445202
IMT, 42637959, 0.002482, 0.001998034, 0.001998037, -0.000649512, 0.0015712, -0.0003159188, -0.002595964, -0.0004679057, -0.009605317
IMT, 42640447, 0.002508, 0.002997051, 0.002997055, -0.000945958, 0.002337898, -0.0004399513, -0.003777471, -0.0007677823, -0.01451408
IMT, 42643094, 0.002492, 0.001998034, 0.001998037, -0.0006176928, 0.00154032, -0.0002781435, -0.002666298, -0.0004355166, -0.009838892
IMT, 42645455, 0.002499, 0.002997051, 0.002997055, -0.0009112979, 0.002310187, -0.0003806682, -0.003998599, -0.0003691874, -0.01493203
IMT, 42647985, 0.002501, 0.002997051, 0.002997055, -0.0008717475, 0.002314975, -0.0003487597, -0.003658283, -0.0002526885, -0.01481128
IMT, 42650465, 0.0025, 0.001998034, 0.001998037, -0.0005582541, 0.001524891, -0.0002124849, -0.002227064, -7.740682E-05, -0.009979799
IMT, 42653168, 0.002594, 0.001998034, 0.001998037, -0.0005399353, 0.001511932, -0.0001916779, -0.002298594, -4.159851E-05, -0.01011915
IMT, 42655450, 0.002406, 0.002997051, 0.002997055, -0.000774299, 0.00223768, -0.0002663378, -0.003401654, 9.724305E-05, -0.01544055
IMT, 42657985, 0.0025, 0.002997051, 0.002997055, -0.0007260764, 0.002210603, -0.000236725, -0.003176146, 0.0003191206, -0.01554627
IMT, 42660724, 0.00251, 0.001998034, 0.001998037, -0.0004575568, 0.001464844, -0.0001374799, -0.001947391, 0.0002624606, -0.01041569
IMT, 42663046, 0.002501, 0.001998034, 0.001998037, -0.0004358269, 0.001445139, -0.0001188166, -0.002016746, 0.0001923913, -0.01053141
IMT, 42665465, 0.002489, 0.002997051, 0.002997055, -0.0006062689, 0.002135325, -0.0001425829, -0.003011624, 0.0004727481, -0.01612692
IMT, 42668094, 0.002506, 0.001998034, 0.001998037, -0.0003678444, 0.001397337, -6.783558E-05, -0.002011739, 0.000433677, -0.01091575
IMT, 42670476, 0.002494, 0.002997051, 0.002997055, -0.0005038705, 0.002066587, -6.943025E-05, -0.002705606, 0.0009003607, -0.01655137
IMT, 42673092, 0.002637, 0.001998034, 0.001998037, -0.0002986376, 0.001346046, -2.804996E-05, -0.001613066, 0.0007288752, -0.01111172
IMT, 42675621, 0.002406, 0.002997051, 0.002997055, -0.0003869694, 0.001973853, -1.641355E-05, -0.002475603, 0.0009298637, -0.01663353
IMT, 42677943, 0.00246, 0.002997051, 0.002997055, -0.0003230695, 0.00192526, 2.727785E-05, -0.00237068, 0.0007885717, -0.01710815
IMT, 42680811, 0.002544, 0.001998034, 0.001998037, -0.0001781633, 0.001249606, 4.044093E-05, -0.001456215, 0.0007210402, -0.0114991
ATT, 42681351, -7.74, -7.74, 11.93, 11.93, 163.04, 163.04, 0.35, 0.20
RATE, 42681391, -9.513802, -9.513802, -0.001540351, 39.33052, 39.33052, 0.001571757, -1.408107, -1.408107, -0.001078739, 0, -464.0949, 0
NKF1, 42681413, -7.74, 11.93, 163.04, 0.3382683, 0.003890374, 0.6350521, 0, 0, 0, -0.2135679, 0.00, 0.00, 0.00
NKF2, 42681413, 0, 0.00, 0.00, 0.00, 0.00, 0.00, 254, 0, 286, 0, 0, 0, 0
NKF3, 42681413, 0.00, 0.00, 0.00, 0.00, 0.00, 0.01, 0, 0, 0, -0.40, 0.00
NKF4, 42681413, 0.00, 0.00, 0.00, 0.00, 0.00, 0.7659181, 0, 0, 0, 19, 0, 0, 0
NKF5, 42681413, 0, 0, 0, 0, 0.46, 0.05, 0.00, 0.00, 0.50, 0.005290022, 0.02440963, 0.1850348
NKQ1, 42681413, 0.1407434, -0.1107981, -0.03855502, 0.983071
NKF6, 42681413, -8.41, 12.94, 163.38, 0.3328672, 8.924433E-05, 0.6034786, 0, 0, 0, -0.218217, 0.00, 0.00, 0.00
NKF7, 42681413, 0, 0.00, 0.00, 0.00, 0.00, 0.00, 249, 0, 290, 0, 0, 0, 0
NKF8, 42681413, 0.00, 0.00, 0.00, 0.00, 0.00, 0.01, 0, 0, 0, -1.10, 0.00
NKF9, 42681413, 0.00, 0.00, 0.00, 0.01, 0.00, 0.5833562, 0, 0, 0, 19, 0, 0, 0
NKQ2, 42681413, 0.1365237, -0.1201164, -0.04331896, 0.9823731
AHR2, 42681896, -6.90, 4.73, 158.28, 0.61, 0, 0, 0.1854239, -0.05186662, -0.0513575, 0.979944
MAG, 42683047, -267, -61, 257, -365, -175, -172, 0, 0, 0, 1, 42678802
MAG2, 42683047, 45, 153, 539, -50, 161, -40, 0, 0, 0, 1, 42678810
MAG3, 42683047, 0, -2, 0, 0, 0, 0, 0, 0, 0, 1, 42678817
BARO, 42683047, 0.6131811, 101386.4, 43.58, 0.08279558, 42678, 0, 35
BAR2, 42683047, 0.695127, 101426.2, 39.82, 0.08279558, 42678, 0, 35
IMT, 42683047, 0.00246, 0.001998034, 0.001998037, -0.0001506482, 0.001233182, 5.374605E-05, -0.001308293, 0.0009156258, -0.01167287
MAG, 42685798, -267, -61, 257, -365, -175, -172, 0, 0, 0, 1, 42678802
MAG2, 42685798, 45, 153, 539, -50, 161, -40, 0, 0, 0, 1, 42678810
MAG3, 42685798, 0, -2, 0, 0, 0, 0, 0, 0, 0, 1, 42678817
BARO, 42685798, 0.6131811, 101386.4, 43.58, 0.08279558, 42678, 0, 35
BAR2, 42685798, 0.695127, 101426.2, 39.82, 0.08279558, 42678, 0, 35
IMT, 42685798, 0.002492, 0.002997051, 0.002997055, -0.0001720442, 0.001800614, 0.0001172847, -0.00156924, 0.00150578, -0.017825
IMT, 42688090, 0.002508, 0.001998034, 0.001998037, -6.532574E-05, 0.001166412, 9.928457E-05, -0.0009330154, 0.001125248, -0.01209732
IMT, 42690477, 0.002493, 0.002997051, 0.002997055, -3.000606E-05, 0.001693899, 0.000184091, -0.001120441, 0.001815586, -0.01864386
IMT, 42693052, 0.002612, 0.001998034, 0.001998037, 2.185823E-05, 0.001095064, 0.0001444798, -0.0005391074, 0.001340047, -0.01264081
IMT, 42695443, 0.002388, 0.002997051, 0.002997055, 8.116054E-05, 0.001571752, 0.0002525033, -0.0006444947, 0.002193573, -0.01939187
IMT, 42698000, 0.002552, 0.002997051, 0.002997055, 0.0001615199, 0.001499568, 0.0002847731, -0.0007080562, 0.002559127, -0.02010074
IMT, 42700762, 0.002448, 0.001998034, 0.001998037, 0.0001443208, 0.0009691589, 0.0002094911, -0.0002452186, 0.001901923, -0.01366728
IMT, 42703193, 0.002509, 0.001998034, 0.001998037, 0.0001767918, 0.0009346206, 0.0002251917, -0.0001143508, 0.001976386, -0.01383086
IMT, 42705817, 0.002491, 0.002997051, 0.002997055, 0.0003233677, 0.001342006, 0.0003670318, 3.810362E-05, 0.003193731, -0.02114344
IMT, 42708058, 0.002569, 0.001998034, 0.001998037, 0.0002480628, 0.0008471691, 0.0002647348, 4.42026E-05, 0.002199193, -0.01436619
IMT, 42710626, 0.002456, 0.002997051, 0.002997055, 0.0004390263, 0.001200043, 0.0004237042, 2.200158E-05, 0.003190612, -0.02219944
IMT, 42712946, 0.002475, 0.002997051, 0.002997055, 0.0004954259, 0.001130174, 0.000444251, -0.0001114257, 0.002859518, -0.02260191
IMT, 42715684, 0.002561, 0.001998034, 0.001998037, 0.0003533221, 0.0007190665, 0.0003148002, -0.0001477367, 0.002032494, -0.01543017
IMT, 42717991, 0.002486, 0.002997051, 0.002997055, 0.0005771785, 0.001021108, 0.0005026413, -0.000172384, 0.003101995, -0.02344335
IMT, 42720720, 0.002453, 0.001998034, 0.001998037, 0.000416985, 0.0006400235, 0.0003446023, -0.0001185873, 0.001960943, -0.01596123
IMT, 42723092, 0.0025, 0.001998034, 0.001998037, 0.0004411404, 0.0006100339, 0.0003645875, -8.396094E-05, 0.00188211, -0.01616222
IMT, 42725924, 0.002499, 0.002997051, 0.002997055, 0.0006732623, 0.0008641679, 0.0005602356, -0.0001857799, 0.002949177, -0.02477547
IMT, 42727940, 0.002501, 0.002997051, 0.002997055, 0.000701155, 0.0008150845, 0.0005729997, -0.0001634084, 0.003290426, -0.02514191
IMT, 42730443, 0.002503, 0.001998034, 0.001998037, 0.0004884605, 0.0005091875, 0.0003983881, -2.788682E-05, 0.002275995, -0.01703176
IMT, 42732979, 0.002535, 0.001998034, 0.001998037, 0.0004991912, 0.0004820728, 0.0004066307, 3.178592E-05, 0.002343913, -0.01710117
IMT, 42735458, 0.00247, 0.002997051, 0.002997055, 0.000771723, 0.0006807015, 0.0006255527, 0.0001284946, 0.003815311, -0.02603436
IMT, 42737951, 0.002492, 0.002997049, 0.002997052, 0.0008090808, 0.0006065944, 0.0006324842, 0.00029102, 0.004068515, -0.02661974
IMT, 42740718, 0.0025, 0.001998032, 0.001998035, 0.0005556974, 0.000365365, 0.0004337944, 0.0001836152, 0.002724982, -0.01798531
IMT, 42743055, 0.002505, 0.001998032, 0.001998035, 0.0005725262, 0.0003412331, 0.0004389223, 0.0003003531, 0.002773087, -0.01799081
IMT, 42745440, 0.002495, 0.002997049, 0.002997052, 0.0008883142, 0.0004467827, 0.0006626012, 0.0006582998, 0.00453412, -0.02708571
IMT, 42747990, 0.00255, 0.001998032, 0.001998035, 0.000603854, 0.0002605362, 0.0004472129, 0.0005298677, 0.003156647, -0.01807314
IMT, 42750676, 0.002485, 0.002997049, 0.002997052, 0.0009406436, 0.0003290809, 0.0006813158, 0.0009248885, 0.004847517, -0.02715533
IMT, 42752998, 0.002477, 0.002997049, 0.002997052, 0.0009848301, 0.0002563637, 0.0006826736, 0.0009546855, 0.004875048, -0.02730451
IMT, 42755690, 0.002598, 0.001998032, 0.001998035, 0.0006797516, 0.0001283169, 0.0004584581, 0.0006470031, 0.003209601, -0.01826444
IMT, 42757939, 0.00239, 0.002997049, 0.002997052, 0.001032698, 0.0001393562, 0.0006979714, 0.0009160424, 0.004554255, -0.02771752
IMT, 42760758, 0.002499, 0.001998032, 0.001998035, 0.000697494, 6.102364E-05, 0.0004612506, 0.0006105258, 0.00310655, -0.01850294
IMT, 42763093, 0.002505, 0.001998032, 0.001998035, 0.0007065667, 3.566378E-05, 0.0004524767, 0.0008240532, 0.003283222, -0.01859975
IMT, 42765836, 0.002495, 0.002997049, 0.002997052, 0.001074136, 1.021195E-05, 0.0006885112, 0.001566419, 0.005050104, -0.02804462
IMT, 42768255, 0.002673, 0.002997049, 0.002997052, 0.001095533, -4.028539E-05, 0.0006875003, 0.00173777, 0.005030732, -0.02842069
IMT, 42770442, 0.002328, 0.001998032, 0.001998035, 0.0007366547, -5.650109E-05, 0.0004512258, 0.001222763, 0.003294979, -0.01901893
IMT, 42772940, 0.0025, 0.002997049, 0.002997052, 0.001107383, -0.0001190504, 0.0006758095, 0.001881816, 0.00505094, -0.02870303
IMT, 42775857, 0.002624, 0.001998032, 0.001998035, 0.0007399821, -9.382375E-05, 0.0004423766, 0.001208804, 0.003400715, -0.01927893
IMT, 42778094, 0.002437, 0.0009990162, 0.0009990174, 0.0003682999, -6.205359E-05, 0.000218186, 0.000690523, 0.001712017, -0.009716408
IMT, 42780474, 0.00244, 0.002997049, 0.002997052, 0.001107383, -0.0002144516, 0.0006529215, 0.002259783, 0.005174167, -0.02923835
ATT, 42781241, -6.30, -6.30, 13.06, 13.06, 163.91, 163.91, 0.35, 0.19
RATE, 42781256, 20.97848, 20.97848, 0.0002317236, -1.423056, -1.423056, 0.002500097, 13.00756, 13.00756, -0.0008686745, 0, -31.91423, 0
NKF1, 42781278, -6.30, 13.06, 163.91, 0.5217292, -0.08532186, 0.7996122, 0, 0, 0, -0.2086518, 0.00, 0.00, 0.00
NKF2, 42781278, 0, 0.00, 0.00, 0.00, 0.00, 0.00, 254, 0, 286, 0, 0, 0, 0
NKF3, 42781278, 0.00, 0.00, 0.00, 0.00, 0.00, 0.03, 0, 0, 0, -3.78, 0.00
NKF4, 42781278, 0.00, 0.00, 0.00, 0.03, 0.00, 0.5038588, 0, 0, 0, 19, 0, 0, 0
NKF5, 42781278, 0, 0, 0, 0, 0.49, 0.05, 0.00, 0.00, 0.50, 0.05101231, 0.06391765, 0.1259104
NKQ1, 42781278, 0.1341338, -0.1185389, -0.02565199, 0.9835135
NKF6, 42781278, -7.11, 14.05, 164.12, 0.5368944, -0.08880567, 0.7478344, 0, 0, 0, -0.2195965, 0.00, 0.00, 0.00
NKF7, 42781278, 0, 0.00, 0.00, 0.00, 0.00, 0.00, 249, 0, 290, 0, 0, 0, 0
NKF8, 42781278, 0.00, 0.00, 0.00, 0.00, 0.00, 0.02, 0, 0, 0, -4.34, 0.00
NKF9, 42781278, 0.00, 0.00, 0.00, 0.04, 0.00, 0.3844683, 0, 0, 0, 19, 0, 0, 0
NKQ2, 42781278, 0.1309517, -0.1278653, -0.0315557, 0.9826019
AHR2, 42781831, -5.10, 5.67, 159.94, 1.14, 0, 0, 0.1715728, -0.05648142, -0.0351854, 0.9829215
MAG, 42782952, -244, -64, 265, -365, -175, -172, 0, 0, 0, 1, 42778372
MAG2, 42782952, 24, 150, 547, -50, 161, -40, 0, 0, 0, 1, 42778380
MAG3, 42782952, 0, -2, 0, 0, 0, 0, 0, 0, 0, 1, 42778387
BARO, 42782952, 1.141591, 101380.4, 43.58, -0.2766978, 42778, 0, 35
BAR2, 42782952, 0.9918275, 101422.9, 39.83, -0.2766978, 42778, 0, 35
IMT, 42782952, 0.00251, 0.001998032, 0.001998035, 0.0007428977, -0.0001625142, 0.0004299165, 0.001560653, 0.003486361, -0.0195863
MAG, 42785608, -244, -64, 265, -365, -175, -172, 0, 0, 0, 1, 42778372
MAG2, 42785608, 24, 150, 547, -50, 161, -40, 0, 0, 0, 1, 42778380
MAG3, 42785608, 0, -2, 0, 0, 0, 0, 0, 0, 0, 1, 42778387
BARO, 42785608, 1.141591, 101380.4, 43.58, -0.2766978, 42778, 0, 35
BAR2, 42785608, 0.9918275, 101422.9, 39.83, -0.2766978, 42778, 0, 35
IMT, 42785608, 0.002519, 0.002997049, 0.002997052, 0.001112276, -0.0002599751, 0.0006311401, 0.002263327, 0.00530689, -0.03007272
IMT, 42787942, 0.002472, 0.002997049, 0.002997052, 0.001093273, -0.0002825522, 0.0006167463, 0.002547837, 0.005330448, -0.03067312
IMT, 42790439, 0.002498, 0.001998032, 0.001998035, 0.0007130377, -0.0001925069, 0.0004026302, 0.001725621, 0.003580018, -0.02070943
IMT, 42793198, 0.002566, 0.001998032, 0.001998035, 0.0007197026, -0.0002035525, 0.0004033992, 0.001857567, 0.003734494, -0.02083296
IMT, 42795486, 0.00244, 0.002997049, 0.002997052, 0.001091046, -0.0003283753, 0.000597765, 0.002757294, 0.005434079, -0.03165281
IMT, 42797965, 0.002494, 0.002997049, 0.002997052, 0.001064645, -0.0003287005, 0.0005884974, 0.002692665, 0.005211084, -0.03214244
IMT, 42800851, 0.0025, 0.001998032, 0.001998035, 0.0007125393, -0.0002188678, 0.0003841284, 0.001896835, 0.003551573, -0.02154104
IMT, 42803071, 0.002501, 0.0009990162, 0.0009990174, 0.0003509072, -0.0001069766, 0.0001863269, 0.001024531, 0.00173678, -0.01093168
IMT, 42805824, 0.002498, 0.002997049, 0.002997052, 0.001052784, -0.0003187141, 0.0005433261, 0.003318093, 0.005181069, -0.03281603
IMT, 42808248, 0.002595, 0.001998032, 0.001998035, 0.0007027725, -0.0002144388, 0.0003579994, 0.002385278, 0.003473152, -0.02208914
IMT, 42810636, 0.002416, 0.002997049, 0.002997052, 0.001053522, -0.0003146701, 0.0005298047, 0.003508789, 0.005253343, -0.03352472
IMT, 42812991, 0.002538, 0.002997049, 0.002997052, 0.00106802, -0.0003075197, 0.0005178219, 0.003398094, 0.005234245, -0.03393356
IMT, 42815450, 0.002454, 0.001998032, 0.001998035, 0.000727057, -0.0002022045, 0.0003431339, 0.002379432, 0.003370991, -0.02284282
IMT, 42818055, 0.002498, 0.002997049, 0.002997052, 0.001097747, -0.0002930389, 0.0005085726, 0.003736581, 0.005095657, -0.03434001
IMT, 42820759, 0.00254, 0.001998032, 0.001998035, 0.0007495356, -0.00020271, 0.0003304527, 0.002532906, 0.003587214, -0.02294237
IMT, 42823085, 0.002466, 0.001998032, 0.001998035, 0.0007661924, -0.000213914, 0.0003337017, 0.002379954, 0.003598584, -0.022927
IMT, 42825448, 0.002494, 0.002997049, 0.002997052, 0.001166252, -0.0003344768, 0.0005026474, 0.003470503, 0.005203393, -0.03433299
IMT, 42828144, 0.002549, 0.001998032, 0.001998035, 0.0007890731, -0.0002283261, 0.000324072, 0.002267667, 0.003342484, -0.0230278
IMT, 42830628, 0.002479, 0.002997049, 0.002997052, 0.001220536, -0.0003670442, 0.0004808655, 0.003111215, 0.005198936, -0.03445219
IMT, 42832993, 0.002471, 0.002997049, 0.002997052, 0.001263002, -0.000384693, 0.0004656902, 0.003019102, 0.005354297, -0.03454877
IMT, 42835732, 0.002501, 0.001998032, 0.001998035, 0.0008588596, -0.0002747928, 0.0003076618, 0.001991905, 0.003463757, -0.02310457
IMT, 42838070, 0.0025, 0.001998032, 0.001998035, 0.0008685431, -0.0002899789, 0.0003078158, 0.001924613, 0.003297631, -0.02309209
IMT, 42840441, 0.002499, 0.002997049, 0.002997052, 0.001319707, -0.0004752518, 0.0004414633, 0.002597946, 0.005071817, -0.03447482
IMT, 42843177, 0.002553, 0.001998032, 0.001998035, 0.0008905013, -0.0003425145, 0.0002901546, 0.001567946, 0.003383304, -0.02299973
IMT, 42845683, 0.002489, 0.002997049, 0.002997052, 0.001354578, -0.0005371868, 0.0004318052, 0.00243533, 0.004658902, -0.03447416
IMT, 42847941, 0.002459, 0.002997049, 0.002997052, 0.001361459, -0.0005593909, 0.0004140246, 0.002563118, 0.004244088, -0.0343712
IMT, 42850439, 0.0025, 0.001998032, 0.001998035, 0.0008989344, -0.000398619, 0.000262987, 0.001668711, 0.002879651, -0.0228515
IMT, 42853006, 0.002566, 0.001998032, 0.001998035, 0.0008972564, -0.0004145146, 0.0002493535, 0.001528039, 0.002888384, -0.02290224
IMT, 42855455, 0.002438, 0.002997049, 0.002997052, 0.001342226, -0.0006393083, 0.000358441, 0.002220602, 0.004156137, -0.03435569
IMT, 42858009, 0.002518, 0.002997049, 0.002997052, 0.001321544, -0.0006607211, 0.0003342636, 0.002247158, 0.003734455, -0.03425808
IMT, 42860715, 0.002478, 0.001998032, 0.001998035, 0.00085698, -0.0004516366, 0.0002123861, 0.001421869, 0.002420313, -0.0227393
IMT, 42863095, 0.00252, 0.001998032, 0.001998035, 0.0008297833, -0.0004648652, 0.0001996761, 0.001271771, 0.00246074, -0.02261101
IMT, 42865614, 0.002529, 0.002997049, 0.002997052, 0.001218845, -0.0007179226, 0.0002662551, 0.001821214, 0.003717142, -0.03362435
IMT, 42868016, 0.002482, 0.002997049, 0.002997052, 0.001174887, -0.0007214393, 0.0002307128, 0.001704951, 0.003401505, -0.03329144
IMT, 42870625, 0.002508, 0.001998032, 0.001998035, 0.0007444936, -0.0004878653, 0.0001342912, 0.0009684718, 0.002223798, -0.02195888
IMT, 42872955, 0.00247, 0.002997049, 0.002997052, 0.001056225, -0.000727642, 0.0001574796, 0.001255371, 0.003417445, -0.03268892
IMT, 42875684, 0.002533, 0.001998032, 0.001998035, 0.0006716913, -0.0004833724, 8.769073E-05, 0.0008165024, 0.002368261, -0.02164819
IMT, 42877985, 0.002502, 0.002997049, 0.002997052, 0.0009760843, -0.0007323801, 9.425861E-05, 0.001080571, 0.003386569, -0.03214012
IMT, 42880748, 0.002456, 0.001998032, 0.001998035, 0.0006148836, -0.0004772968, 4.232219E-05, 0.0006488775, 0.00209237, -0.02136902
ATT, 42881274, -3.84, -3.84, 11.67, 11.67, 164.96, 164.95, 0.30, 0.16
RATE, 42881288, 21.62499, 21.62499, 0.002695599, -13.85863, -13.85863, -0.001157249, 3.881644, 3.881644, 0.0004874942, 0, 116.1708, 0
NKF1, 42881311, -3.84, 11.67, 164.95, 0.6636395, -0.2090393, 0.6629844, 0, 0, 0, -0.189882, 0.00, 0.00, -0.01
NKF2, 42881311, 0, 0.00, 0.00, 0.00, 0.00, 0.00, 254, 0, 286, 0, 0, 0, 0
NKF3, 42881311, 0.00, 0.00, 0.00, 0.02, 0.00, 0.17, 0, 0, 0, -6.28, 0.00
NKF4, 42881311, 0.00, 0.00, 0.01, 0.06, 0.00, 0.3377051, 0, 0, 0, 19, 0, 0, 0
NKF5, 42881311, 0, 0, 0, 0, 0.31, -0.15, 0.47, 0.05, 0.46, 0.05738518, 0.02505581, 0.1101912
NKQ1, 42881311, 0.1280694, -0.1036261, -0.007168439, 0.9863105
NKF6, 42881311, -4.74, 12.66, 165.09, 0.6939324, -0.2040846, 0.5937832, 0, 0, 0, -0.2096076, 0.00, 0.00, -0.02
NKF7, 42881311, 0, 0.00, 0.00, 0.00, 0.00, 0.00, 249, 0, 290, 0, 0, 0, 0
NKF8, 42881311, 0.00, 0.00, 0.00, 0.02, 0.00, 0.15, 0, 0, 0, -6.92, 0.00
NKF9, 42881311, 0.00, 0.00, 0.00, 0.07, 0.00, 0.2571634, 0, 0, 0, 19, 0, 0, 0
NKQ2, 42881311, 0.1256832, -0.1131031, -0.01391273, 0.9855039
AHR2, 42881783, -2.98, 3.93, 161.18, 0.96, 0, 0, 0.1624614, -0.03811717, -0.02009749, 0.9857736
MAG, 42883161, -249, -71, 263, -365, -175, -172, 0, 0, 0, 1, 42878414
MAG2, 42883161, 24, 160, 545, -50, 161, -40, 0, 0, 0, 1, 42878421
MAG3, 42883161, 0, -2, 0, 0, 0, 0, 0, 0, 0, 1, 42878429
BARO, 42883161, 0.9635704, 101382.4, 43.58, 0.7798368, 42878, 0, 35
BAR2, 42883161, 0.9494418, 101423.3, 39.83, 0.7798368, 42878, 0, 35
IMT, 42883161, 0.0025, 0.001998032, 0.001998035, 0.0005915925, -0.0004719372, 2.504176E-05, 0.0007788422, 0.002117427, -0.02117578
MAG, 42885887, -249, -71, 263, -365, -175, -172, 0, 0, 0, 1, 42878414
MAG2, 42885887, 24, 160, 545, -50, 161, -40, 0, 0, 0, 1, 42878421
MAG3, 42885887, 0, -2, 0, 0, 0, 0, 0, 0, 0, 1, 42878429
BARO, 42885887, 0.9635704, 101382.4, 43.58, 0.7798368, 42878, 0, 35
BAR2, 42885887, 0.9494418, 101423.3, 39.83, 0.7798368, 42878, 0, 35
IMT, 42885887, 0.002501, 0.002997049, 0.002997052, 0.000844362, -0.0006883747, 7.864274E-06, 0.001362591, 0.003336909, -0.03129219
IMT, 42888014, 0.002535, 0.002997049, 0.002997052, 0.0007870639, -0.0006794235, -3.232297E-05, 0.00147205, 0.003105812, -0.03106928
IMT, 42890442, 0.002464, 0.001998032, 0.001998035, 0.0004985713, -0.0004468178, -3.335456E-05, 0.0009380772, 0.001954429, -0.02055835
IMT, 42893033, 0.00259, 0.001998032, 0.001998035, 0.0004738842, -0.0004423665, -4.827058E-05, 0.0009556453, 0.001931893, -0.02046285
IMT, 42895619, 0.002421, 0.002997049, 0.002997052, 0.0006692891, -0.0006350469, -0.0001010797, 0.001565028, 0.00284599, -0.03037115
IMT, 42897937, 0.002489, 0.002997049, 0.002997052, 0.0006234645, -0.0005992929, -0.0001353181, 0.001733023, 0.002761425, -0.03009957
IMT, 42900638, 0.002534, 0.001998032, 0.001998035, 0.000389444, -0.0003837436, -0.00010955, 0.001244167, 0.001717132, -0.01985992
IMT, 42903082, 0.002466, 0.001998032, 0.001998035, 0.0003711015, -0.0003700606, -0.0001216285, 0.001258884, 0.001685916, -0.01969045
IMT, 42905794, 0.0025, 0.002997049, 0.002997052, 0.0005164842, -0.0005322493, -0.0002009795, 0.001825537, 0.002577227, -0.02936505
IMT, 42908101, 0.0025, 0.001998032, 0.001998035, 0.0003141616, -0.0003290283, -0.0001536386, 0.001243881, 0.00177696, -0.01959199
IMT, 42910691, 0.002569, 0.002997049, 0.002997052, 0.0004346396, -0.0004574541, -0.0002682518, 0.002179179, 0.002581526, -0.02910807
IMT, 42913087, 0.002431, 0.001998032, 0.001998035, 0.0002646636, -0.0002897177, -0.0001883024, 0.001451258, 0.001723982, -0.01931645
IMT, 42915487, 0.0025, 0.002997049, 0.002997052, 0.0003565698, -0.0004059731, -0.0003141411, 0.001844177, 0.002375735, -0.02874441
IMT, 42917992, 0.002535, 0.001998032, 0.001998035, 0.0002127369, -0.0002404778, -0.000223943, 0.001293808, 0.00158209, -0.01904292
IMT, 42920624, 0.002466, 0.002997049, 0.002997052, 0.0002675066, -0.0003154047, -0.0003552563, 0.002379556, 0.002591182, -0.02838145
IMT, 42923075, 0.002503, 0.001998032, 0.001998035, 0.0001520097, -0.0001924122, -0.0002586624, 0.001597886, 0.001807593, -0.01890442
IMT, 42925893, 0.002495, 0.002997049, 0.002997052, 0.0001891776, -0.0002775305, -0.0004186287, 0.001925109, 0.002685405, -0.02832702
IMT, 42927986, 0.002501, 0.002997049, 0.002997052, 0.0001299512, -0.0002341454, -0.0004486679, 0.001840065, 0.00272936, -0.0281889
IMT, 42930462, 0.0025, 0.001998032, 0.001998035, 5.729666E-05, -0.000132503, -0.0003152499, 0.001243862, 0.001860466, -0.01880697
IMT, 42933185, 0.002589, 0.001998032, 0.001998035, 3.393846E-05, -0.0001279886, -0.0003280346, 0.001144387, 0.001884665, -0.0187172
IMT, 42935441, 0.002411, 0.002997049, 0.002997052, -6.354996E-06, -0.0001632684, -0.000520571, 0.001623285, 0.002867235, -0.02799641
IMT, 42937938, 0.0025, 0.002997049, 0.002997052, -5.306721E-05, -0.0001348431, -0.0005560899, 0.001792341, 0.002914863, -0.02799654
IMT, 42940724, 0.0025, 0.001998032, 0.001998035, -6.903648E-05, -7.808011E-05, -0.0003864741, 0.001159584, 0.001942371, -0.01865932
IMT, 42943067, 0.002508, 0.001998032, 0.001998035, -9.184908E-05, -6.83323E-05, -0.0004025695, 0.00117632, 0.002101973, -0.01866368
IMT, 42945798, 0.002492, 0.002997049, 0.002997052, -0.0001812963, -9.620845E-05, -0.0006298376, 0.001717695, 0.003135847, -0.02806215
IMT, 42947959, 0.002516, 0.001998032, 0.001998035, -0.0001497049, -5.106057E-05, -0.0004337595, 0.001083493, 0.002087027, -0.01860899
IMT, 42950645, 0.002498, 0.002997049, 0.002997052, -0.0002621396, -6.945195E-05, -0.0006753723, 0.001728735, 0.003173785, -0.02792102
IMT, 42952991, 0.002485, 0.002997049, 0.002997052, -0.0003115145, -5.926438E-05, -0.0007004222, 0.001896265, 0.003364913, -0.02792591
IMT, 42955802, 0.002501, 0.001998032, 0.001998035, -0.0002256004, -2.789549E-05, -0.000484319, 0.001383792, 0.002465606, -0.01863527
IMT, 42958051, 0.0025, 0.001998032, 0.001998035, -0.0002366517, -3.069448E-05, -0.0004926776, 0.001499336, 0.002512203, -0.01858264
IMT, 42960440, 0.0025, 0.002997049, 0.002997052, -0.0003765937, -4.586262E-05, -0.0007618751, 0.002262161, 0.003616531, -0.02793205
IMT, 42962982, 0.002542, 0.001998032, 0.001998035, -0.0002728348, -2.709962E-05, -0.0005151329, 0.001556473, 0.002397551, -0.01855021
IMT, 42965629, 0.002458, 0.002997049, 0.002997052, -0.000415528, -4.803951E-05, -0.000778582, 0.002290685, 0.003891912, -0.02758483
IMT, 42968098, 0.002544, 0.002997049, 0.002997052, -0.0004190467, -4.104822E-05, -0.0008000848, 0.002397573, 0.003968602, -0.02758006
IMT, 42970441, 0.002456, 0.001998032, 0.001998035, -0.0002721791, -3.615949E-05, -0.0005410444, 0.001619726, 0.002531642, -0.01823033
IMT, 42973089, 0.002499, 0.001998032, 0.001998035, -0.0002606709, -4.348168E-05, -0.000537258, 0.001618875, 0.002449472, -0.01815204
IMT, 42976033, 0.003006, 0.002997049, 0.002997052, -0.0003825048, -6.114489E-05, -0.0008216961, 0.002362325, 0.003761941, -0.02713155
IMT, 42978844, 0.002518, 0.002997049, 0.002997052, -0.0003420785, -6.336154E-05, -0.0008213292, 0.002583521, 0.003725247, -0.02682595
IMT, 42981050, 0.002545, 0.001998032, 0.001998035, -0.0002036539, -4.53496E-05, -0.0005485746, 0.001853075, 0.002416141, -0.01776462
ATT, 42981862, -3.73, -3.73, 10.51, 10.51, 164.40, 164.40, 0.30, 0.14
RATE, 42981876, -7.690774, -7.690774, -0.002879336, -0.9310046, -0.9310046, 0.0007680826, -15.37127, -15.37127, 0.001193884, 0, -62.57677, 0
NKF1, 42982045, -3.73, 10.51, 164.40, 0.7606202, -0.3016873, 0.6817225, 0, 0, 0, -0.1760649, 0.00, 0.00, -0.02
NKF2, 42982045, 0, 0.00, 0.00, 0.00, 0.00, 0.00, 254, 0, 286, 0, 0, 0, 0
NKF3, 42982045, 0.00, 0.00, 0.00, 0.05, 0.00, 0.72, 0, 0, 0, -3.93, 0.00
NKF4, 42982045, 0.00, 0.01, 0.04, 0.04, 0.00, 0.2264384, 0, 0, 0, 19, 0, 0, 0
NKF5, 42982045, 0, 0, 0, 0, 0.38, -0.15, 0.47, 0.05, 0.46, 0.06704526, 0.05438725, 0.1884112
NKQ1, 42982045, 0.1332865, -0.09353854, -0.007102994, 0.9866281
NKF6, 42982045, -4.72, 11.47, 164.62, 0.805081, -0.2861914, 0.5985338, 0, 0, 0, -0.2105646, 0.00, 0.00, -0.03
NKF7, 42982045, 0, 0.00, 0.00, 0.00, 0.00, 0.00, 249, 0, 290, 0, 0, 0, 0
NKF8, 42982045, 0.00, 0.00, 0.00, 0.05, 0.00, 0.69, 0, 0, 0, -4.54, 0.00
NKF9, 42982045, 0.00, 0.01, 0.04, 0.04, 0.00, 0.173558, 0, 0, 0, 19, 0, 0, 0
NKQ2, 42982045, 0.1302656, -0.1029044, -0.01465312, 0.9860157
AHR2, 42982285, -3.25, 2.33, 160.47, 1.25, 0, 0, 0.1689134, -0.02492483, -0.02455636, 0.9850096
MAG, 42983473, -259, -77, 259, -365, -175, -172, 0, 0, 0, 1, 42979364
MAG2, 42983473, 30, 170, 541, -50, 161, -40, 0, 0, 0, 1, 42979371
MAG3, 42983473, 0, -2, 0, 0, 0, 0, 0, 0, 0, 1, 42979379
BARO, 42983473, 1.251794, 101379.2, 43.58, 1.848264, 42979, 0, 35
BAR2, 42983473, 0.9579189, 101423.2, 39.84, 1.848264, 42979, 0, 35
IMT, 42983473, 0.002456, 0.002997049, 0.002997052, -0.0002775106, -8.378473E-05, -0.0008208498, 0.002641639, 0.003378147, -0.02664744
MAG, 42985963, -259, -77, 259, -365, -175, -172, 0, 0, 0, 1, 42979364
MAG2, 42985963, 30, 170, 541, -50, 161, -40, 0, 0, 0, 1, 42979371
MAG3, 42985963, 0, -2, 0, 0, 0, 0, 0, 0, 0, 1, 42979379
BARO, 42985963, 1.251794, 101379.2, 43.58, 1.848264, 42979, 0, 35
BAR2, 42985963, 0.9579189, 101423.2, 39.84, 1.848264, 42979, 0, 35
IMT, 42985963, 0.002499, 0.002997049, 0.002997052, -0.0002273255, -9.77625E-05, -0.0008266943, 0.002492895, 0.003404439, -0.02650776
IMT, 42988770, 0.0025, 0.001998032, 0.001998035, -0.0001254301, -6.461725E-05, -0.0005409417, 0.001672492, 0.002293395, -0.01756403
IMT, 42991072, 0.002568, 0.001998032, 0.001998035, -9.408795E-05, -7.113643E-05, -0.0005410281, 0.001724534, 0.002186121, -0.01738854
IMT, 42993631, 0.002432, 0.002997049, 0.002997052, -8.976577E-05, -0.0001148448, -0.0008073644, 0.002436402, 0.003025949, -0.02594034
IMT, 42996004, 0.002504, 0.002997049, 0.002997052, -4.380555E-05, -0.0001290852, -0.0007941718, 0.002423828, 0.003098894, -0.02581085
IMT, 42998658, 0.002518, 0.001998032, 0.001998035, 9.184489E-06, -8.973978E-05, -0.0005208694, 0.001735254, 0.00209344, -0.01705708
IMT, 43000963, 0.002478, 0.002997049, 0.002997052, 6.523034E-05, -0.0001217393, -0.0007666824, 0.002700935, 0.00293495, -0.0255599
IMT, 43003897, 0.002941, 0.002997049, 0.002997052, 0.0001177006, -0.0001247901, -0.0007547939, 0.002701872, 0.002749173, -0.02541861
IMT, 43006787, 0.002518, 0.001998032, 0.001998035, 0.0001082033, -7.623612E-05, -0.0004925841, 0.001751458, 0.00183734, -0.01687643
IMT, 43009165, 0.002501, 0.001998032, 0.001998035, 0.0001294841, -7.331515E-05, -0.0004934749, 0.001823821, 0.001839575, -0.01680912
IMT, 43011472, 0.002499, 0.002997049, 0.002997052, 0.0002328179, -0.0001011466, -0.0007377801, 0.002826475, 0.002616145, -0.0249501
IMT, 43013973, 0.002513, 0.002997049, 0.002997052, 0.0002712629, -9.542661E-05, -0.0007292795, 0.002649495, 0.002544357, -0.02479644
IMT, 43016735, 0.002488, 0.001998032, 0.001998035, 0.000193938, -6.212411E-05, -0.000483611, 0.001722885, 0.001685025, -0.01636479
IMT, 43019108, 0.002527, 0.001998032, 0.001998035, 0.0002014658, -4.948033E-05, -0.0004867169, 0.001698358, 0.001751638, -0.01621121
IMT, 43021611, 0.002473, 0.002997049, 0.002997052, 0.0003199673, -5.610207E-05, -0.0007256414, 0.002521297, 0.002561164, -0.0240421
IMT, 43024074, 0.002528, 0.002997049, 0.002997052, 0.0003358994, -3.270611E-05, -0.0007262649, 0.002465736, 0.002645566, -0.0235706
IMT, 43026438, 0.002472, 0.001998032, 0.001998035, 0.000233154, -2.389391E-05, -0.0004852444, 0.001679152, 0.001825033, -0.01553429
IMT, 43029079, 0.0025, 0.001998032, 0.001998035, 0.0002370755, -2.387094E-05, -0.0004868035, 0.001575542, 0.001869554, -0.01556077
IMT, 43031429, 0.0025, 0.002997049, 0.002997052, 0.0003584231, -8.112625E-06, -0.0007411343, 0.002242801, 0.002740071, -0.02325154
IMT, 43033981, 0.0025, 0.002997049, 0.002997052, 0.0003628282, -3.382996E-06, -0.0007526133, 0.002282904, 0.002801316, -0.02326602
IMT, 43036724, 0.0025, 0.001998032, 0.001998035, 0.0002423053, 6.460602E-07, -0.0004990038, 0.001383319, 0.001994042, -0.01543235
IMT, 43039070, 0.002507, 0.001998032, 0.001998035, 0.0002457777, 1.744677E-06, -0.0005059488, 0.00133544, 0.00192497, -0.01544596
IMT, 43041892, 0.002497, 0.002997049, 0.002997052, 0.0003819189, 1.590319E-05, -0.0007729334, 0.002033456, 0.002838225, -0.02331654
IMT, 43044011, 0.002496, 0.002997049, 0.002997052, 0.0003821461, 2.949256E-05, -0.0007847738, 0.00220239, 0.002916371, -0.02352218
